Time,Throttle,Yaw,Pitch,Roll,Speed_kmh,Altitude,EMG_Quality,Fatigue_Level
1757440365.12,0.00,0.00,0.00,0.00,2.7,395.9,Not Calibrated,0.0
1757440365.29,0.00,0.00,0.00,0.00,4.9,384.9,Not Calibrated,0.0
1757440365.45,0.00,0.00,0.00,0.00,6.9,368.2,Not Calibrated,0.0
1757440365.62,0.00,0.00,0.00,0.00,8.6,346.4,Not Calibrated,0.0
1757440365.78,0.00,0.00,0.00,0.00,10.0,320.3,Not Calibrated,0.0
1757440365.95,0.00,0.00,0.00,0.00,11.3,290.5,Not Calibrated,0.0
1757440366.11,0.00,0.00,0.00,0.00,12.3,257.5,Not Calibrated,0.0
1757440366.28,0.00,0.00,0.00,0.00,13.3,221.7,Not Calibrated,0.0
1757440366.44,0.00,0.00,0.00,0.00,14.1,183.6,Not Calibrated,0.0
1757440366.61,0.00,0.00,0.00,0.00,14.7,143.5,Not Calibrated,0.0
1757440366.78,0.00,0.00,0.00,0.00,15.3,101.7,Not Calibrated,0.0
1757440366.94,0.00,0.00,0.00,0.00,15.8,58.3,Not Calibrated,0.0
1757440367.10,0.00,0.00,0.00,0.00,16.3,13.7,Not Calibrated,0.0
1757440367.27,0.00,0.00,0.00,0.00,16.6,10.0,Not Calibrated,0.0
1757440367.43,0.00,0.00,0.00,0.00,17.0,10.0,Not Calibrated,0.0
1757440367.60,0.00,0.00,0.00,0.00,17.2,10.0,Not Calibrated,0.0
1757440367.76,0.00,0.00,0.00,0.00,17.5,10.0,Not Calibrated,0.0
1757440367.93,0.00,0.00,0.00,0.00,17.7,10.0,Not Calibrated,0.0
1757440368.09,0.00,0.00,0.00,0.00,17.8,10.0,Not Calibrated,0.0
1757440368.26,0.00,0.00,0.00,0.00,18.0,10.0,Not Calibrated,0.0
1757440368.43,0.00,0.00,0.00,0.00,18.1,10.0,Not Calibrated,0.0
1757440368.59,0.00,0.00,0.00,0.00,18.2,10.0,Not Calibrated,0.0
1757440368.75,0.00,0.00,0.00,0.00,18.3,10.0,Not Calibrated,0.0
1757440368.92,0.00,0.00,0.00,0.00,18.4,10.0,Not Calibrated,0.0
1757440369.08,0.00,0.00,0.00,0.00,18.5,10.0,Not Calibrated,0.0
1757440369.25,0.00,0.00,0.00,0.00,18.5,10.0,Not Calibrated,0.0
1757440369.41,0.00,0.00,0.00,0.00,18.6,10.0,Not Calibrated,0.0
1757440369.58,0.00,0.00,0.00,0.00,18.6,10.0,Not Calibrated,0.0
1757440369.74,0.00,0.00,0.00,0.00,18.7,10.0,Not Calibrated,0.0
1757440369.91,0.00,0.00,0.00,0.00,18.7,10.0,Not Calibrated,0.0
1757440370.07,0.00,0.00,0.00,0.00,18.7,10.0,Not Calibrated,0.0
1757440370.24,0.00,0.00,0.00,0.00,18.8,10.0,Not Calibrated,0.0
1757440370.40,0.00,0.00,0.00,0.00,18.8,10.0,Not Calibrated,0.0
1757440370.57,0.00,0.00,0.00,0.00,18.8,10.0,Not Calibrated,0.0
1757440370.73,0.00,0.00,0.00,0.00,18.8,10.0,Not Calibrated,0.0
1757440370.90,0.00,0.00,0.00,0.00,18.8,10.0,Not Calibrated,0.0
1757440371.07,0.00,0.00,0.00,0.00,18.8,10.0,Not Calibrated,0.0
1757440371.23,0.00,0.00,0.00,0.00,18.9,10.0,Not Calibrated,0.0
1757440371.40,0.00,0.00,0.00,0.00,18.9,10.0,Not Calibrated,0.0
1757440371.57,0.00,0.00,0.00,0.00,18.9,10.0,Not Calibrated,0.0
1757440371.73,0.00,0.00,0.00,0.00,18.9,10.0,Not Calibrated,0.0
1757440371.90,0.00,0.00,0.00,0.00,18.9,10.0,Not Calibrated,0.0
1757440372.06,0.00,0.00,0.00,0.00,18.9,10.0,Not Calibrated,0.0
1757440372.22,0.00,0.00,0.00,0.00,18.9,10.0,Not Calibrated,0.0
1757440372.39,1.00,0.00,0.00,0.00,66.4,32.1,Not Calibrated,0.0
1757440372.55,1.00,0.00,0.00,0.00,137.0,218.2,Not Calibrated,0.0
1757440372.71,0.00,0.00,0.00,0.00,118.0,435.5,Not Calibrated,0.0
1757440372.88,0.00,0.00,0.00,0.00,99.9,615.9,Not Calibrated,0.0
1757440373.04,0.00,0.00,0.00,0.00,84.3,763.6,Not Calibrated,0.0
1757440373.21,0.00,0.00,0.00,0.00,68.3,827.7,Not Calibrated,0.0
1757440373.37,0.00,0.00,0.00,0.00,64.7,716.3,Not Calibrated,4.3
1757440373.54,0.00,0.00,0.00,0.00,57.3,610.4,Not Calibrated,3.5
1757440373.70,0.00,0.00,0.00,0.00,51.0,511.9,Not Calibrated,2.9
1757440373.87,0.00,0.00,0.00,0.00,45.7,419.9,Not Calibrated,2.1
1757440374.04,0.00,0.00,0.00,0.00,41.2,333.4,Not Calibrated,2.1
1757440374.20,0.00,0.00,0.00,0.00,37.4,251.7,Not Calibrated,1.7
1757440374.36,0.00,0.00,0.00,0.00,34.2,174.1,Not Calibrated,1.6
1757440374.53,0.00,0.00,0.00,0.00,31.6,100.0,Not Calibrated,2.0
1757440374.69,0.00,0.00,0.00,0.00,29.4,28.9,Not Calibrated,1.8
1757440374.85,0.00,0.00,0.00,0.00,27.6,10.0,Not Calibrated,2.2
1757440375.02,0.00,0.00,0.00,0.00,26.1,10.0,Not Calibrated,2.3
1757440375.19,0.00,0.00,0.00,0.00,24.8,10.0,Not Calibrated,2.4
1757440375.35,0.00,0.00,0.00,0.00,23.8,10.0,Not Calibrated,2.1
1757440375.52,0.00,0.00,0.00,0.00,23.0,10.0,Not Calibrated,1.0
1757440375.68,0.00,0.00,0.00,0.00,22.3,10.0,Not Calibrated,1.8
1757440375.85,0.00,0.00,0.00,0.00,21.7,10.0,Not Calibrated,1.7
1757440376.02,0.00,0.00,0.00,0.00,21.3,10.0,Not Calibrated,1.4
1757440376.18,0.00,0.00,0.00,0.00,20.9,10.0,Not Calibrated,1.2
1757440376.35,0.00,0.00,0.00,0.00,20.6,10.0,Not Calibrated,1.0
1757440376.52,0.00,0.00,-0.50,0.00,22.5,10.0,Not Calibrated,1.2
1757440376.70,0.00,0.00,-0.50,0.00,26.6,10.0,Not Calibrated,0.4
1757440376.89,0.00,0.00,0.00,0.00,25.9,10.0,Not Calibrated,1.6
1757440377.08,0.00,0.00,0.00,0.00,24.8,10.0,Not Calibrated,1.5
1757440377.27,0.00,0.00,0.00,0.00,23.9,10.0,Not Calibrated,2.0
1757440377.46,0.00,0.00,0.50,0.00,20.9,10.0,Not Calibrated,2.3
1757440377.62,0.00,0.00,0.00,0.00,18.2,10.0,Not Calibrated,2.3
1757440377.79,0.00,0.00,0.00,0.00,18.3,10.0,Not Calibrated,3.4
1757440377.95,0.00,0.00,0.00,0.00,18.3,10.0,Not Calibrated,4.0
1757440378.12,0.00,0.00,0.00,0.00,17.5,10.0,Not Calibrated,5.1
1757440378.28,0.00,0.00,0.00,0.00,17.5,10.0,Not Calibrated,5.7
1757440378.44,0.00,0.00,0.00,0.00,17.5,10.0,Not Calibrated,5.5
1757440378.61,0.00,0.00,0.00,0.00,17.5,10.0,Not Calibrated,5.7
1757440378.77,0.00,0.00,0.00,0.00,17.6,10.0,Not Calibrated,5.2
1757440378.94,0.00,0.00,0.50,0.00,17.2,10.0,Not Calibrated,5.0
1757440379.11,0.00,0.00,0.00,0.00,17.7,10.0,Not Calibrated,4.7
1757440379.27,0.00,0.00,0.00,0.00,17.3,10.0,Not Calibrated,4.5
1757440379.44,0.00,0.00,0.00,0.00,17.1,10.0,Not Calibrated,4.2
1757440379.60,0.00,0.00,0.00,0.00,17.1,10.0,Not Calibrated,3.7
1757440379.77,0.00,0.00,0.00,0.00,17.1,10.0,Not Calibrated,4.2
1757440379.94,0.00,0.00,0.00,0.00,17.2,10.0,Not Calibrated,3.5
1757440380.10,0.00,0.00,-0.50,0.00,18.8,10.0,Not Calibrated,4.2
1757440380.26,0.00,0.00,0.00,0.00,20.2,10.0,Not Calibrated,4.9
1757440380.43,0.00,0.00,0.00,0.00,20.0,10.0,Not Calibrated,5.5
1757440380.59,0.00,0.00,-0.50,0.00,20.2,10.0,Not Calibrated,5.4
1757440380.75,0.00,0.00,0.00,0.00,24.2,10.0,Not Calibrated,4.9
1757440380.91,0.00,0.00,0.00,0.00,23.3,10.0,Not Calibrated,5.2
1757440381.08,0.00,0.00,0.00,0.00,22.6,10.0,Not Calibrated,5.4
1757440381.24,0.00,0.00,0.50,0.00,20.6,10.0,Not Calibrated,5.2
1757440381.41,0.00,0.00,0.00,0.00,18.3,10.0,Not Calibrated,5.1
1757440381.57,0.00,0.00,0.00,0.00,18.4,10.0,Not Calibrated,5.2
1757440381.74,0.00,0.00,0.50,0.00,17.2,10.0,Not Calibrated,5.1
1757440381.90,0.00,0.00,0.00,0.00,17.1,10.0,Not Calibrated,3.8
1757440382.06,0.00,0.00,0.00,0.00,17.2,10.0,Not Calibrated,3.6
1757440382.23,0.00,0.00,0.00,0.00,17.4,10.0,Not Calibrated,2.6
1757440382.39,0.00,0.00,0.00,0.00,17.5,10.0,Not Calibrated,1.2
1757440382.56,0.00,0.00,0.00,0.00,17.7,10.0,Not Calibrated,2.1
1757440382.73,0.00,0.00,0.00,0.00,17.8,10.0,Not Calibrated,1.2
1757440382.90,0.00,0.00,0.00,0.00,17.9,10.0,Not Calibrated,0.7
1757440383.06,0.00,0.00,0.00,0.00,18.0,10.0,Not Calibrated,0.3
1757440383.23,0.00,0.00,0.00,0.00,18.2,10.0,Not Calibrated,0.6
1757440383.39,0.00,0.00,0.00,0.00,18.3,10.0,Not Calibrated,1.2
1757440383.56,0.00,0.00,0.00,0.00,18.3,10.0,Not Calibrated,1.5
1757440383.73,0.00,0.00,0.00,0.00,18.4,10.0,Not Calibrated,0.8
1757440383.89,0.00,0.00,0.00,0.00,18.5,10.0,Not Calibrated,1.7
1757440384.05,0.00,0.00,0.00,0.00,18.5,10.0,Not Calibrated,1.2
1757440384.22,0.00,0.00,0.00,0.00,18.6,10.0,Not Calibrated,1.2
1757440384.38,0.00,0.00,0.00,0.00,18.6,10.0,Not Calibrated,1.3
1757440384.55,0.00,0.00,0.00,0.00,18.7,10.0,Not Calibrated,0.8
1757440384.71,0.00,0.00,0.00,0.00,18.7,10.0,Not Calibrated,1.4
1757440384.88,0.00,0.00,0.00,0.00,18.7,10.0,Not Calibrated,23.8
1757440385.04,0.00,0.00,0.00,0.00,18.8,10.0,Not Calibrated,24.5
1757440385.21,0.00,0.00,0.00,0.00,18.8,10.0,Not Calibrated,24.6
1757440385.37,0.00,0.00,0.00,0.00,18.8,10.0,Not Calibrated,24.6
1757440385.54,0.00,0.00,0.00,0.00,18.8,10.0,Not Calibrated,24.6
1757440385.70,0.00,0.00,0.00,0.00,18.8,10.0,Not Calibrated,24.6
1757440385.87,0.00,0.00,0.00,0.00,18.8,10.0,Not Calibrated,24.6
1757440386.04,0.00,0.00,0.00,0.00,18.8,10.0,Not Calibrated,24.6
1757440386.20,0.00,0.00,0.00,0.00,18.9,10.0,Not Calibrated,24.6
1757440386.37,0.00,0.00,0.00,0.00,18.9,10.0,Not Calibrated,24.6
1757440386.53,0.00,0.00,0.00,0.00,18.9,10.0,Not Calibrated,24.7
1757440386.70,0.00,0.00,0.00,0.00,18.9,10.0,Not Calibrated,25.0
1757440386.86,0.00,0.00,0.00,0.00,18.9,10.0,Not Calibrated,24.9
1757440387.03,0.00,0.00,0.00,0.00,18.9,10.0,Not Calibrated,24.7
1757440387.19,0.00,0.00,0.00,0.00,18.9,10.0,Not Calibrated,24.8
1757440387.35,0.00,0.00,0.00,0.00,18.9,10.0,Not Calibrated,25.5
1757440387.52,0.00,0.00,0.00,0.00,18.9,10.0,Not Calibrated,25.2
1757440387.68,0.00,0.00,0.00,0.00,18.9,10.0,Not Calibrated,24.6
1757440387.85,0.00,0.00,0.00,0.00,18.9,10.0,Not Calibrated,24.7
1757440388.01,0.00,0.00,0.00,0.00,18.9,10.0,Not Calibrated,25.8
1757440388.18,0.00,0.00,0.00,0.00,18.9,10.0,Not Calibrated,25.2
1757440388.34,0.00,0.00,0.00,0.00,18.9,10.0,Not Calibrated,26.1
1757440388.50,0.00,0.00,0.00,0.00,18.9,10.0,Not Calibrated,26.1
1757440388.67,0.00,0.00,0.00,0.00,18.9,10.0,Not Calibrated,26.4
1757440388.83,0.00,0.00,0.00,0.00,18.9,10.0,Not Calibrated,26.4
1757440389.00,0.00,0.00,0.00,0.00,18.9,10.0,Not Calibrated,40.2
1757440389.16,0.00,0.00,0.00,0.00,18.9,10.0,Not Calibrated,45.9
1757440389.32,0.00,0.00,0.00,0.00,18.9,10.0,Not Calibrated,22.1
1757440389.48,0.00,0.00,0.00,0.00,18.9,10.0,Not Calibrated,22.0
1757440389.65,0.00,0.00,0.00,0.00,18.9,10.0,Not Calibrated,22.0
1757440389.81,0.00,0.00,0.00,0.00,18.9,10.0,Not Calibrated,23.1
1757440389.98,0.00,0.00,0.00,0.00,18.9,10.0,Not Calibrated,25.5
1757440390.14,0.00,0.00,0.00,0.00,18.9,10.0,Not Calibrated,24.8
1757440390.30,0.00,0.00,0.00,0.00,18.9,10.0,Not Calibrated,25.8
1757440390.47,0.00,0.00,0.00,0.00,18.9,10.0,Not Calibrated,25.0
1757440390.63,0.00,0.00,0.00,0.00,18.9,10.0,Not Calibrated,24.1
1757440390.80,0.00,0.00,0.00,0.00,18.9,10.0,Not Calibrated,23.2
1757440390.97,0.00,0.00,0.00,0.00,18.9,10.0,Not Calibrated,24.0
1757440391.13,0.00,0.00,0.00,0.00,18.9,10.0,Not Calibrated,24.3
1757440391.30,0.00,0.00,0.00,0.00,18.9,10.0,Not Calibrated,24.9
1757440391.46,0.00,0.00,0.00,0.00,18.9,10.0,Not Calibrated,24.7
1757440391.63,0.00,0.00,0.00,0.00,18.9,10.0,Not Calibrated,25.2
1757440391.79,0.00,0.00,0.00,0.00,18.9,10.0,Not Calibrated,26.1
1757440391.96,0.00,0.00,0.00,0.00,18.9,10.0,Not Calibrated,24.8
1757440392.12,0.00,0.00,0.00,0.00,18.9,10.0,Not Calibrated,24.1
1757440392.29,0.00,0.00,0.00,0.00,18.9,10.0,Not Calibrated,25.8
1757440392.45,0.00,0.00,0.00,0.00,18.9,10.0,Not Calibrated,25.6
1757440392.62,0.00,0.00,0.00,0.00,18.9,10.0,Not Calibrated,24.8
1757440392.79,0.00,0.00,0.00,0.00,18.9,10.0,Not Calibrated,24.9
1757440392.95,0.00,0.00,0.00,0.00,18.9,10.0,Not Calibrated,25.5
1757440393.12,0.00,0.00,0.00,0.00,18.9,10.0,Not Calibrated,25.8
1757440393.28,0.00,0.00,0.00,0.00,18.9,10.0,Not Calibrated,24.0
1757440393.45,0.00,0.00,0.00,0.00,18.9,10.0,Not Calibrated,24.4
1757440393.62,0.00,0.00,0.00,0.00,18.9,10.0,Not Calibrated,24.2
1757440393.78,0.00,0.00,0.00,0.00,18.9,10.0,Not Calibrated,23.9
1757440393.95,0.00,0.00,0.00,0.00,18.9,10.0,Not Calibrated,23.6
1757440394.11,0.00,0.00,0.00,0.00,18.9,10.0,Not Calibrated,23.6
1757440394.27,0.00,0.00,0.00,0.00,18.9,10.0,Not Calibrated,24.0
1757440394.44,0.00,0.00,0.00,0.00,18.9,10.0,Not Calibrated,24.5
1757440394.60,0.00,0.00,0.00,0.00,18.9,10.0,Not Calibrated,23.9
1757440394.77,0.00,0.00,0.00,0.00,18.9,10.0,Not Calibrated,24.1
1757440394.93,0.00,0.00,0.00,0.00,18.9,10.0,Not Calibrated,24.2
1757440395.09,0.00,0.00,0.00,0.00,18.9,10.0,Not Calibrated,24.5
1757440395.26,0.00,0.00,0.00,0.00,18.9,10.0,Not Calibrated,25.4
1757440395.42,0.00,0.00,0.00,0.00,18.9,10.0,Not Calibrated,26.0
1757440395.58,0.00,0.00,0.00,0.00,18.9,10.0,Not Calibrated,25.5
1757440395.75,0.00,0.00,0.00,0.00,18.9,10.0,Not Calibrated,25.0
1757440395.91,0.00,0.00,0.00,0.00,18.9,10.0,Not Calibrated,24.8
1757440396.08,0.00,0.00,0.00,0.00,18.9,10.0,Not Calibrated,25.6
1757440396.24,0.00,0.00,0.00,0.00,18.9,10.0,Not Calibrated,24.8
1757440396.41,0.00,0.00,0.00,0.00,18.9,10.0,Not Calibrated,24.6
1757440396.57,0.00,0.00,0.00,0.00,18.9,10.0,Not Calibrated,24.1
1757440396.74,0.00,0.00,0.00,0.00,18.9,10.0,Not Calibrated,23.2
1757440396.90,0.00,0.00,0.00,0.00,18.9,10.0,Not Calibrated,23.4
1757440397.07,0.00,0.00,0.00,0.00,18.9,10.0,Not Calibrated,22.5
1757440397.24,0.00,0.00,0.00,0.00,18.9,10.0,Not Calibrated,19.5
1757440397.40,0.00,0.00,0.00,0.00,18.9,10.0,Not Calibrated,19.5
1757440397.56,0.00,0.00,0.00,0.00,18.9,10.0,Not Calibrated,19.3
1757440397.72,0.00,0.00,0.00,0.00,18.9,10.0,Not Calibrated,18.1
1757440397.89,0.00,0.00,0.00,0.00,18.9,10.0,Not Calibrated,16.0
1757440398.06,0.00,0.00,0.00,0.00,18.9,10.0,Not Calibrated,16.0
1757440398.22,0.00,0.00,0.00,0.00,18.9,10.0,Not Calibrated,10.2
1757440398.39,0.00,0.00,0.00,0.00,18.9,10.0,Not Calibrated,3.3
1757440398.55,0.00,0.00,0.00,0.00,18.9,10.0,Not Calibrated,4.1
1757440398.72,0.00,0.00,0.00,0.00,18.9,10.0,Not Calibrated,4.8
1757440398.88,0.00,0.00,0.00,0.00,18.9,10.0,Not Calibrated,3.6
1757440399.04,0.00,0.00,0.00,0.00,18.9,10.0,Not Calibrated,4.2
1757440399.21,0.00,0.00,0.00,0.00,18.9,10.0,Not Calibrated,3.7
1757440399.38,0.00,0.00,0.00,0.00,18.9,10.0,Not Calibrated,3.1
1757440399.54,0.00,0.00,0.00,0.00,18.9,10.0,Not Calibrated,2.9
1757440399.71,0.00,0.00,0.00,0.00,18.9,10.0,Not Calibrated,3.7
1757440399.88,0.00,0.00,0.00,0.00,18.9,10.0,Not Calibrated,4.0
1757440400.04,0.00,0.00,0.00,0.00,18.9,10.0,Not Calibrated,4.6
1757440400.21,0.00,0.00,0.00,0.00,18.9,10.0,Not Calibrated,2.4
1757440400.37,0.00,0.00,0.00,0.00,18.9,10.0,Not Calibrated,2.6
1757440400.54,0.00,0.00,0.00,0.00,18.9,10.0,Not Calibrated,4.3
1757440400.70,0.00,0.00,0.00,0.00,18.9,10.0,Not Calibrated,5.6
1757440400.87,0.00,0.00,0.00,0.00,18.9,10.0,Not Calibrated,5.5
1757440401.04,0.00,0.00,0.00,0.00,18.9,10.0,Not Calibrated,5.2
1757440401.20,0.00,0.00,0.00,0.00,18.9,10.0,Not Calibrated,5.1
1757440401.37,0.00,0.00,0.00,0.00,18.9,10.0,Not Calibrated,5.2
